[
    {
        "id": "16",
        "name": "Lublin - Plac Litewski i wieża",
        "coordinates": {
            "latitude": 51.24883157134596,
            "longitude": 22.56053167155847
        }
    },
    {
        "id": "10",
        "name": "Lublin - Ogród Botaniczny UMCS",
        "coordinates": {
            "latitude": 51.26397489006051,
            "longitude": 22.51460855926683
        }
    },
    {
        "id": "17",
        "name": "Lublin - Zemborzycka",
        "coordinates": {
            "latitude": 51.20352505264133,
            "longitude": 22.56197098667245
        }
    },
    {
        "id": "18",
        "version": "2",
        "name": "Lublin - Hajdów",
        "coordinates": {
            "latitude": 51.26432900380031,
            "longitude": 22.62286746370699
        }
    },

    {
        "id": "11",
        "name": "Guciów",
        "coordinates": {
            "latitude": 50.58260080836105,
            "longitude": 23.0736288201608
        }
    },
    {
        "id": "23",
        "version": "2",
        "name": "Wola Wereszczyska",
        "coordinates": {
            "latitude": 51.4422633461205,
            "longitude": 23.1296912916864
        }
    },
    {
        "id": "21",
        "version": "2",
        "name": "Leśniowice",
        "coordinates": {
            "latitude": 50.98827879634518,
            "longitude": 23.5098807838827
        }
    },
    {
        "id": "22",
        "version": "2",
        "name": "Rybczewice",
        "coordinates": {
            "latitude": 51.03996952978463,
            "longitude": 22.85381124230385
        }
    },
    {
        "id": "20",
        "version": "2",
        "name": "Trzydnik Duży",
        "coordinates": {
            "latitude": 50.85198604606561,
            "longitude": 22.13405528303083
        }
    },
    {
        "id": "24",
        "version": "2",
        "name": "Celejów",
        "coordinates": {
            "latitude": 51.33065284680626,
            "longitude": 22.07194641028227
        }
    },
    {
        "id": "19",
        "name": "PGK Lubartów",
        "coordinates": {
            "latitude": 51.45285112153797,
            "longitude": 22.59025174604673
        }
    },
    {
        "id": "13",
        "version": "2",
        "name": "Łuków",
        "coordinates": {
            "latitude": 51.93088259147004,
            "longitude": 22.38912169272377
        }
    }
]
